City_ID,City,Lat,Lng,Max Temp,Humidity,Cloudiness,Wind Speed,Country,Date
0,west island,-12.1568,96.8225,26.99,83,75,8.75,CC,1727792944
1,port hedland,-20.3167,118.5667,26.03,78,20,4.12,AU,1727792765
2,lebu,-37.6167,-73.65,9.51,57,35,5.7,CL,1727792947
3,ancud,-41.8697,-73.8203,6.44,65,39,1.01,CL,1727792948
4,aripuana,-9.1667,-60.6333,34.59,43,66,0.89,BR,1727792949
5,puerto ayora,-0.7393,-90.3518,21.98,97,99,1.79,EC,1727792950
6,puerto natales,-51.7236,-72.4875,3.25,100,100,5.66,CL,1727792952
7,hadibu,12.65,54.0333,26.76,77,23,0.46,YE,1727792953
8,jamestown,42.097,-79.2353,19.77,82,100,3.58,US,1727792954
9,saldanha,-33.0117,17.9442,14.11,65,13,8.67,ZA,1727792955
10,haiku-pauwela,20.9219,-156.3051,25.02,77,40,3.6,US,1727792957
11,iqaluit,63.7506,-68.5145,5.85,81,75,9.77,CA,1727792958
12,punta arenas,-53.15,-70.9167,2.06,55,75,4.63,CL,1727792959
13,wailua homesteads,22.0669,-159.378,22.64,89,24,4.13,US,1727792960
14,ulladulla,-35.35,150.4667,14.36,78,96,0.4,AU,1727792962
15,constantia,44.1833,28.65,13.38,72,100,11.84,RO,1727792963
16,itarantim,-15.6597,-40.0656,26.84,54,72,3.29,BR,1727792964
17,ranot,7.7777,100.3213,28.22,76,100,4.59,TH,1727792965
18,zalingei,12.9096,23.4741,27.06,57,92,5.97,SD,1727792966
19,ushuaia,-54.8,-68.3,-1.19,55,75,5.66,AR,1727792968
20,puyang chengguanzhen,35.7028,115.0053,13.18,41,0,5.0,CN,1727792913
21,queenstown,-31.8976,26.8753,15.03,25,0,4.02,ZA,1727792970
22,igarka,67.4667,86.5833,1.76,92,87,4.25,RU,1727792971
23,nova vicosa,-17.8919,-39.3719,26.3,64,14,5.15,BR,1727792973
24,piui,-20.4653,-45.9581,30.29,29,0,3.77,BR,1727792974
25,blackmans bay,-43.0167,147.3167,7.07,75,17,2.48,AU,1727792975
26,berezovyy,51.6667,135.7,1.75,77,5,2.51,RU,1727792976
27,port mathurin,-19.6833,63.4167,22.37,86,1,9.52,MU,1727792978
28,adamstown,-25.066,-130.1015,18.82,71,14,5.97,PN,1727792979
29,port-aux-francais,-49.35,70.2167,4.56,84,100,11.63,TF,1727792980
30,zakharivka,47.3333,29.75,21.5,33,100,7.16,UA,1727792981
31,grytviken,-54.2811,-36.5092,-4.43,68,54,9.12,GS,1727792983
32,ilulissat,69.2167,-51.1,4.01,87,75,1.54,GL,1727792984
33,lihue,21.9789,-159.3672,22.98,89,26,4.28,US,1727792985
34,uzgen,40.7699,73.3007,15.16,35,57,1.18,KG,1727792987
35,cuyo,10.8525,121.0086,29.11,72,100,0.88,PH,1727792988
36,savoy,45.5,6.4167,8.54,62,100,1.15,FR,1727792989
37,st. john's,47.5649,-52.7093,12.21,96,100,10.73,CA,1727792991
38,hermanus,-34.4187,19.2345,14.89,65,53,5.1,ZA,1727792992
39,albany,42.6001,-73.9662,18.75,78,100,1.79,US,1727792993
40,whitehorse,60.7161,-135.0538,2.12,87,100,1.03,CA,1727792994
41,atafu village,-8.5421,-172.5159,27.57,74,100,2.31,TK,1727792996
42,arteche,12.2645,125.4048,26.99,85,100,2.76,PH,1727792997
43,petropavlovsk-kamchatsky,53.0452,158.6483,12.33,88,75,2.0,RU,1727792809
44,bethel,41.3712,-73.414,18.2,77,0,3.09,US,1727792999
45,papatowai,-46.5619,169.4708,10.34,78,100,2.42,NZ,1727793000
46,margaret river,-33.95,115.0667,15.5,75,62,9.06,AU,1727793002
47,waitangi,-43.9535,-176.5597,11.01,88,16,1.34,NZ,1727793004
48,kunashak,55.7032,61.5498,13.29,60,31,4.11,RU,1727793006
49,zouerate,22.7187,-12.4521,36.2,17,97,5.28,MR,1727793007
50,drayton valley,53.2168,-114.9854,5.26,92,100,3.84,CA,1727793008
51,new plymouth,-39.0667,174.0833,13.78,100,100,6.82,NZ,1727793006
52,la sarre,48.8002,-79.1996,17.67,72,85,6.77,CA,1727793011
53,nar'yan-mar,67.6713,53.087,4.3,76,19,5.96,RU,1727793012
54,sitka,57.0531,-135.33,9.94,76,100,6.69,US,1727793013
55,kavaratti,10.5669,72.642,27.91,78,99,2.43,IN,1727793015
56,lewiston orchards,46.3804,-116.9754,9.35,61,0,2.57,US,1727793016
57,taraz,42.9,71.3667,18.23,36,40,0.0,KZ,1727793017
58,invercargill,-46.4,168.35,10.57,85,100,0.89,NZ,1727793007
59,butajira,8.1167,38.3667,17.91,78,79,1.56,ET,1727793020
60,nagqu,31.5,92.0,5.23,83,100,6.42,CN,1727793021
61,thompson,55.7435,-97.8558,3.09,100,75,5.14,CA,1727793022
62,manokwari,-0.8667,134.0833,26.09,81,100,1.49,ID,1727793023
63,jabat,7.75,168.9751,29.1,74,94,7.09,MH,1727793024
64,dudinka,69.4058,86.1778,2.1,91,99,3.35,RU,1727793026
65,wynyard,-41.0,145.7167,5.66,83,0,3.46,AU,1727793027
66,portland,45.5234,-122.6762,12.96,76,20,1.54,US,1727792670
67,olonkinbyen,70.9221,-8.7187,0.02,66,100,2.81,SJ,1727793029
68,subaykhan,34.8544,40.6083,30.79,27,0,2.77,SY,1727793031
69,ongjin,37.9347,125.3619,14.32,57,41,4.8,KP,1727792952
70,kuanda,56.3161,116.0806,1.9,78,71,0.8,RU,1727793033
71,talnakh,69.4865,88.3972,1.65,97,98,1.33,RU,1727793034
72,fort st. john,56.2499,-120.8529,1.94,100,75,2.06,CA,1727793036
73,arraial do cabo,-22.9661,-42.0278,30.92,45,0,10.29,BR,1727793037
74,nemuro,43.3236,145.575,16.43,98,14,4.13,JP,1727793020
75,khandyga,62.6667,135.6,0.23,99,100,0.67,RU,1727793039
76,ust'-ilimsk,58.0006,102.6619,8.77,93,100,6.54,RU,1727793041
77,sovetskaya gavan',48.9723,140.2878,8.25,78,100,1.03,RU,1727793042
78,yellowknife,62.456,-114.3525,2.45,99,75,5.66,CA,1727793043
79,yemetsk,63.4721,41.7941,4.46,61,6,2.28,RU,1727793044
80,georgetown,5.4112,100.3354,28.96,86,20,1.54,MY,1727792985
81,bafoulabe,13.8065,-10.8321,31.68,59,100,1.92,ML,1727793047
82,anadyr,64.75,177.4833,5.28,86,75,5.81,RU,1727793048
83,chibougamau,49.9168,-74.3659,15.27,60,0,5.99,CA,1727793049
84,dhidhdhoo,6.8833,73.1,28.18,76,100,1.89,MV,1727793050
85,tura,25.5198,90.2201,24.0,94,30,0.85,IN,1727793052
86,codrington,-38.2667,141.9667,8.61,92,75,1.97,AU,1727793053
87,talavera,15.6167,120.9333,24.14,95,100,1.44,PH,1727793054
88,crane,31.3974,-102.3501,24.31,33,0,5.94,US,1727793056
89,badger,64.8,-147.5333,0.0,80,20,2.57,US,1727793057
90,edinburgh of the seven seas,-37.0676,-12.3116,13.63,82,43,8.53,SH,1727793058
91,susuman,62.7833,148.1667,-4.84,88,96,1.31,RU,1727793059
92,christchurch,-43.5333,172.6333,10.18,80,60,0.51,NZ,1727793000
93,bredasdorp,-34.5322,20.0403,13.88,58,95,4.0,ZA,1727793062
94,birjand,32.8663,59.2211,26.26,15,20,3.09,IR,1727793063
95,sinop,41.7711,34.8709,15.24,83,100,1.76,TR,1727793064
96,mana,5.6592,-53.7767,31.63,57,26,2.78,GF,1727793065
97,revda,56.801,59.9303,5.48,56,2,2.15,RU,1727793067
98,cassia,-20.5831,-46.9219,35.16,19,0,1.82,BR,1727793068
99,riti,7.9167,9.6167,30.3,66,92,2.56,NG,1727793069
100,hamilton,39.1834,-84.5333,20.47,96,100,1.54,US,1727793003
101,inongo,-1.95,18.2667,27.47,65,40,2.04,CD,1727793071
102,carnarvon,-24.8667,113.6333,19.36,65,17,5.76,AU,1727793073
103,island harbour,50.724,-1.2758,15.82,60,100,3.13,GB,1727793074
104,shenkursk,62.1091,42.896,5.26,66,36,2.26,RU,1727793075
105,happy valley-goose bay,53.3168,-60.3315,8.17,81,40,1.54,CA,1727793076
106,tiksi,71.6872,128.8694,-8.2,93,100,1.78,RU,1727793081
107,nosivka,50.9315,31.5828,19.3,23,100,2.09,UA,1727793082
108,mount gambier,-37.8333,140.7667,7.54,96,13,0.57,AU,1727793010
109,belmonte,-15.8631,-38.8828,25.59,72,54,3.92,BR,1727793085
110,camayenne,9.535,-13.6878,30.05,74,75,3.09,GN,1727793087
111,brody,50.0879,25.1503,8.7,80,100,3.13,UA,1727793088
112,fisterra,42.9049,-9.2629,21.53,99,100,4.19,ES,1727793090
113,vorgashor,67.5833,63.95,2.38,96,100,11.27,RU,1727793091
114,uliastay,47.7417,96.8444,2.22,65,6,1.23,MN,1727793051
115,la passe,45.5549,-0.8967,19.13,93,100,10.16,FR,1727793093
116,sao jose da coroa grande,-8.8978,-35.1478,26.99,60,82,4.21,BR,1727793095
117,fonte boa,-2.4959,-66.2662,32.7,50,97,1.7,BR,1727793096
118,vostochnyy,55.8167,37.8667,17.96,46,0,3.84,RU,1727793097
119,mili,6.0815,171.735,28.53,71,100,4.88,MH,1727793098
120,bikenibeu village,1.3673,173.1241,27.82,71,0,5.45,KI,1727793100
121,lata,40.1629,-8.3327,24.72,60,83,3.4,PT,1727793101
122,alofi,-19.0595,-169.9187,22.94,78,75,7.2,NU,1727793102
123,guercif,34.2257,-3.3536,35.75,19,2,0.56,MA,1727793103
124,keflavik,64.0049,-22.5624,8.97,100,100,7.72,IS,1727793104
125,horki,54.2861,30.9842,14.03,50,90,3.69,BY,1727793106
126,colonia,50.9333,6.95,16.99,72,75,3.6,DE,1727792943
127,hawaiian paradise park,19.5933,-154.9731,21.73,96,75,2.57,US,1727793108
128,gazojak,41.1875,61.4036,20.63,18,1,0.05,TM,1727793109
129,nieves,15.3274,120.9485,26.73,93,100,0.91,PH,1727793111
130,namibe,-15.1961,12.1522,20.32,74,19,5.12,AO,1727793112
131,klyuchi,52.2667,79.1667,14.5,37,0,2.19,RU,1727793113
132,stanley,54.868,-1.6985,10.95,95,100,7.61,GB,1727793114
133,sibundoy,1.2048,-76.9237,14.81,63,28,2.42,CO,1727793116
134,howard springs,-12.497,131.047,27.95,91,6,0.73,AU,1727793117
135,rio gallegos,-51.6226,-69.2181,1.03,93,40,3.09,AR,1727793118
136,yuzhno-kurilsk,44.0306,145.8556,16.66,96,16,3.8,RU,1727793119
137,ventnor,50.5948,-1.2037,15.38,77,100,1.34,GB,1727793121
138,kodiak,57.79,-152.4072,8.73,57,0,5.66,US,1727793122
139,rio grande,-32.035,-52.0986,20.06,99,100,3.45,BR,1727793123
140,bada,51.392,109.8717,0.48,89,15,2.36,RU,1727793124
141,chonchi,-42.6128,-73.8092,7.29,84,91,2.69,CL,1727793126
142,turpan,42.9333,89.1667,19.51,21,0,0.77,CN,1727793127
143,moose jaw,50.4001,-105.5344,8.15,42,100,9.26,CA,1727793128
144,paramonga,-10.6667,-77.8333,19.35,80,72,3.67,PE,1727793129
145,port elizabeth,-33.918,25.5701,18.39,65,0,10.29,ZA,1727793131
146,bilibino,68.0546,166.4372,-0.1,94,100,1.4,RU,1727793133
147,pazaryolu,40.4208,40.771,13.81,74,98,2.95,TR,1727793134
148,ust-nera,64.5667,143.2,-5.11,89,66,0.77,RU,1727793135
149,lapao,-11.3833,-41.8319,28.31,35,99,6.78,BR,1727793137
150,az zulfi,26.2995,44.8154,33.09,14,0,2.42,SA,1727793138
151,tazacorte,28.629,-17.9293,24.54,79,40,5.66,ES,1727793139
152,claveria,18.6074,121.0832,25.74,79,100,3.51,PH,1727793140
153,la gi,10.6667,107.7833,26.86,89,51,3.53,VN,1727793141
154,isafjordur,66.0755,-23.124,10.02,76,100,3.6,IS,1727793143
155,lompoc,34.6391,-120.4579,13.08,100,0,1.54,US,1727793144
156,hammerfest,70.6634,23.6821,3.25,93,75,19.55,NO,1727793145
157,high rock,26.6208,-78.2833,32.01,70,97,2.78,BS,1727793146
158,laojunmiao,39.8333,97.7333,8.44,14,0,1.34,CN,1727793148
159,iskateley,67.6803,53.1512,4.25,76,19,5.96,RU,1727793149
160,riachao,-7.3619,-46.6172,36.95,21,99,3.3,BR,1727793150
161,labe,11.3182,-12.2833,26.82,60,33,3.14,GN,1727793151
162,ciudad lazaro cardenas,17.9583,-102.2,26.52,81,100,1.25,MX,1727793153
163,la mira,18.035,-102.3266,26.55,82,100,1.11,MX,1727793154
164,sinabang,2.4803,96.3801,27.18,79,98,1.59,ID,1727793156
165,magadan,59.5667,150.8,2.33,65,7,5.28,RU,1727793158
166,feijo,-8.1642,-70.3536,34.6,37,67,1.49,BR,1727793159
167,marang,5.2056,103.2059,25.95,86,96,2.42,MY,1727793160
168,holualoa,19.6228,-155.9522,21.91,73,0,1.54,US,1727793161
169,fortaleza,-3.7227,-38.5247,30.07,76,20,8.75,BR,1727793163
170,wenling,28.3669,121.36,20.16,85,100,10.57,CN,1727793164
171,praia,14.9215,-23.5087,30.3,74,75,6.17,CV,1727793165
172,ribeira grande,38.5167,-28.7,25.22,88,40,8.23,PT,1727793166
173,harper,4.375,-7.7169,26.13,80,78,5.29,LR,1727793167
174,takoradi,4.8845,-1.7554,26.59,76,91,5.76,GH,1727793004
175,petrov val,50.1434,45.2096,18.04,24,0,4.57,RU,1727793170
176,chiredzi,-21.05,31.6667,26.3,41,30,6.19,ZW,1727793172
177,weno,7.4515,151.8468,27.97,83,40,2.57,FM,1727793174
178,saipan,15.1355,145.701,29.39,84,40,4.12,MP,1727793175
179,longyearbyen,78.2186,15.6401,-5.09,86,20,2.06,SJ,1727793176
180,port lincoln,-34.7333,135.8667,12.97,85,0,4.65,AU,1727793179
181,quellon,-43.1167,-73.6167,6.58,84,99,4.24,CL,1727793181
182,singkil,-7.9855,111.4161,25.6,84,100,2.39,ID,1727793182
183,yigo village,13.5361,144.8886,27.16,93,75,3.09,GU,1727793183
184,yeppoon,-23.1333,150.7333,21.88,76,6,6.87,AU,1727793184
185,rabo de peixe,37.8,-25.5833,24.73,88,75,7.2,PT,1727793186
186,qaqortoq,60.7167,-46.0333,6.13,77,65,1.9,GL,1727793187
187,hasaki,35.7333,140.8333,23.22,90,100,4.91,JP,1727793131
188,sandnessjoen,66.0217,12.6316,8.07,76,75,2.57,NO,1727793189
189,kibaya,-5.3,36.5667,26.6,31,79,4.35,TZ,1727793190
190,tamandare,-8.7597,-35.1047,27.33,58,85,4.17,BR,1727793192
191,guerrero negro,27.9769,-114.0611,20.22,81,0,2.49,MX,1727793193
192,sirte,31.2089,16.5887,25.42,53,2,4.39,LY,1727793194
193,udachny,66.4167,112.4,1.62,99,100,3.92,RU,1727793195
194,barcelos,41.5388,-8.6151,21.03,97,100,2.03,PT,1727793197
195,santa cruz,-17.8,-63.1667,30.03,58,38,11.83,BO,1727793198
196,biankouma,7.7391,-7.6138,26.04,85,88,0.32,CI,1727793199
197,tazovsky,67.4667,78.7,2.32,97,100,7.8,RU,1727793200
198,kapuskasing,49.4169,-82.4331,11.05,93,100,6.17,CA,1727793203
199,ta`u,-14.2336,-169.5144,23.79,92,100,7.0,AS,1727793204
200,beau vallon,-20.4189,57.6953,23.45,78,40,5.14,MU,1727793205
201,viedma,-40.8135,-62.9967,11.0,49,94,4.24,AR,1727793207
202,antofagasta,-23.65,-70.4,15.6,62,33,4.32,CL,1727793209
203,dryden,49.7833,-92.7503,9.66,50,7,5.34,CA,1727793210
204,college,64.8569,-147.8028,0.05,81,20,2.57,US,1727793212
205,vilyuchinsk,52.9306,158.4028,13.15,90,100,2.0,RU,1727793213
206,oshakati,-17.7833,15.6833,34.01,10,32,1.45,NA,1727793216
207,remire-montjoly,4.9167,-52.2667,32.02,62,0,1.54,GF,1727793217
208,popondetta,-8.7537,148.2534,22.85,97,42,1.14,PG,1727793219
209,dongola,19.1667,30.4833,39.24,11,0,6.58,SD,1727793220
210,tenenkou,14.4572,-4.9169,35.83,35,37,2.46,ML,1727793221
211,illapel,-31.6308,-71.1653,19.43,48,0,2.38,CL,1727793222
212,kolonia,50.9333,6.95,16.99,71,20,4.63,DE,1727793224
213,newman,37.3138,-121.0208,16.13,25,0,0.82,US,1727793225
214,taroa,8.7058,171.2275,28.42,74,74,5.89,MH,1727793226
215,malango,-2.9627,119.9001,19.25,84,82,0.84,ID,1727793227
216,port blair,11.6667,92.75,27.9,81,100,3.52,IN,1727793123
217,fiambala,-27.6871,-67.6149,27.45,9,7,3.45,AR,1727793230
218,ati,13.2154,18.3353,38.17,21,96,4.91,TD,1727793231
219,ashta,23.0167,76.7167,25.8,77,0,1.5,IN,1727793232
220,kerikeri,-35.2268,173.9474,15.51,87,100,3.13,NZ,1727793233
221,kruisfontein,-34.0033,24.7314,17.16,55,27,6.0,ZA,1727793235
222,kupang,-10.1667,123.5833,28.32,74,61,4.63,ID,1727793237
223,scottburgh,-30.2867,30.7532,17.95,57,0,9.07,ZA,1727793238
224,prince rupert,54.3161,-130.3201,10.83,87,99,7.72,CA,1727793239
225,bizerte,37.2744,9.8739,31.0,42,0,5.66,TN,1727793241
226,xinyuan,37.3,99.0,0.4,17,0,2.33,CN,1727793242
227,sept-iles,50.2001,-66.3821,14.29,62,20,4.12,CA,1727793243
228,kone,-21.0595,164.8658,19.83,93,7,1.64,NC,1727793245
229,plettenberg bay,-34.0527,23.3716,14.18,59,60,2.16,ZA,1727793250
230,rudsar,37.1376,50.288,23.99,74,1,3.35,IR,1727793041
231,carbonear,47.7332,-53.2148,12.46,96,100,9.45,CA,1727793252
232,tosontsengel,48.7567,98.2839,1.52,78,25,2.63,MN,1727793254
233,severo-yeniseyskiy,60.3725,93.0408,1.08,92,39,2.57,RU,1727793255
234,laguna de perlas,12.3429,-83.6712,27.05,89,100,1.28,NI,1727793256
235,copala,16.65,-98.9833,25.9,86,82,2.37,MX,1727793257
236,basco,20.4487,121.9702,28.53,69,100,14.36,PH,1727793259
237,sendai,38.2689,140.8719,20.71,83,7,2.84,JP,1727792756
238,san juan,-31.5375,-68.5364,18.21,27,0,7.18,AR,1727793261
239,hinesville,31.8469,-81.5959,26.58,88,75,0.0,US,1727793262
240,gap,44.6667,6.0,14.35,65,95,1.12,FR,1727793264
241,wajir,1.7471,40.0573,34.98,34,20,4.63,KE,1727793265
242,katabu,-4.9333,122.5167,24.7,87,100,2.05,ID,1727793266
243,lahad datu,5.0268,118.327,24.96,92,79,1.72,MY,1727793267
244,letlhakane,-21.4167,25.5833,29.24,3,0,4.76,BW,1727793269
245,kolonia town,6.964,158.206,28.72,76,100,4.62,FM,1727793270
246,burang,30.25,81.1667,9.85,76,21,2.18,CN,1727793271
247,san matias,-16.3667,-58.4,40.68,20,11,5.42,BO,1727793272
248,papao,-17.75,-149.55,23.82,72,100,1.57,PF,1727793274
249,keelung,25.1283,121.7419,27.81,70,100,5.13,TW,1727793035
250,poronaysk,49.2167,143.1167,8.08,94,100,2.37,RU,1727793276
251,lagunillas,10.1301,-71.2595,29.9,67,86,2.15,VE,1727793277
252,avarua,-21.2078,-159.775,20.03,68,40,1.54,CK,1727793279
253,baukau,51.5526,7.2042,15.36,93,100,3.56,DE,1727793280
254,enewetak,11.3474,162.3373,28.84,77,83,8.08,MH,1727793281
255,tahe,52.3333,124.7333,1.07,75,100,1.42,CN,1727793282
256,el calafate,-50.3408,-72.2768,4.08,70,48,2.26,AR,1727793284
257,alappakkam,11.6,79.7333,28.67,79,6,6.38,IN,1727793285
258,walvis bay,-22.9575,14.5053,24.53,33,0,5.66,NA,1727793286
259,mogocha,53.7333,119.7667,1.49,73,40,1.45,RU,1727793287
260,bardsir,29.9227,56.5743,20.78,18,6,3.2,IR,1727793289
261,bam,29.106,58.357,29.16,20,16,2.94,IR,1727793290
262,kalmunai,7.4167,81.8167,28.17,77,23,6.99,LK,1727793291
263,kostomuksha,64.571,30.5767,7.45,71,98,5.6,RU,1727793292
264,ribeira brava,32.65,-17.0667,28.17,73,8,0.37,PT,1727793294
265,zaragoza,41.6561,-0.8773,27.47,37,0,1.03,ES,1727793295
266,kayangel,8.0823,134.7173,28.3,74,90,2.56,PW,1727793296
267,port alfred,-33.5906,26.891,15.1,78,56,1.79,ZA,1727793297
268,peniche,39.3558,-9.3811,23.45,85,14,3.62,PT,1727793299
269,dakhla,23.6848,-15.958,21.04,82,65,8.31,EH,1727793300
270,waingapu,-9.6567,120.2641,25.97,73,86,2.79,ID,1727793301
271,new river,33.9159,-112.136,30.9,38,1,4.38,US,1727793303
272,campechuela,20.2342,-77.2789,30.08,66,4,0.52,CU,1727793304
273,aasiaat,68.7098,-52.8699,2.3,86,36,0.48,GL,1727793306
274,pompeu,-19.2244,-44.9353,32.69,21,0,1.65,BR,1727793307
275,fallon,39.4735,-118.7774,6.93,49,40,0.0,US,1727793308
276,stornoway,58.2093,-6.3865,14.49,80,20,5.14,GB,1727793309
277,santanyi,39.3546,3.1291,25.45,58,7,3.67,ES,1727793108
278,corner brook,48.9667,-57.9484,12.09,86,100,3.36,CA,1727793312
279,pont rouge,48.8833,-72.0825,13.16,55,1,4.27,CA,1727793313
280,oamaru,-45.0784,170.9801,9.1,90,100,2.28,NZ,1727793112
281,lahan,26.7296,86.4951,27.11,82,4,1.44,NP,1727793316
282,fort bragg,35.139,-79.006,23.23,95,100,2.57,US,1727793317
283,huarmey,-10.0681,-78.1522,19.9,79,43,3.95,PE,1727793318
284,kerema,-7.9631,145.7785,25.54,91,96,1.74,PG,1727793319
285,san rafael del sur,11.8485,-86.4384,25.54,85,100,1.36,NI,1727793321
286,road town,18.4167,-64.6167,31.05,74,40,4.12,VG,1727793322
287,olyokminsk,60.3736,120.4264,3.65,97,100,3.84,RU,1727793323
288,las tablas,7.7667,-80.2833,24.3,91,100,2.11,PA,1727793324
289,tofol,5.3248,163.0078,28.39,73,65,4.03,FM,1727793325
290,ust-tsilma,65.441,52.1498,5.94,68,16,4.79,RU,1727793327
291,toliara,-23.35,43.6667,25.73,80,1,4.09,MG,1727793328
292,mendi,-6.1761,143.6513,12.66,98,93,1.22,PG,1727793329
293,san antonio de pale,-1.4014,5.6325,24.89,79,100,5.37,GQ,1727793330
294,hithadhoo,-0.6,73.0833,28.86,75,10,5.88,MV,1727793332
295,geraldton,-28.7667,114.6,17.23,63,40,5.14,AU,1727793333
296,south venice,27.0531,-82.4243,29.47,87,100,2.05,US,1727793334
297,cill airne,52.05,-9.5167,15.03,72,75,1.54,IE,1727793335
298,bayanhongor,46.7167,100.1167,-1.41,68,4,2.11,MN,1727793336
299,krasnyy chikoy,50.3643,108.7512,0.02,77,15,1.4,RU,1727793338
300,colares,38.7992,-9.4469,25.81,70,40,4.63,PT,1727793339
301,east london,-33.0153,27.9116,16.52,67,0,11.32,ZA,1727793312
302,kodinsk,58.6881,99.1844,6.97,93,100,4.38,RU,1727793341
303,kanniyakumari,8.0833,77.5667,28.25,84,38,3.3,IN,1727793334
304,morena,26.4969,78.0,30.54,49,0,1.87,IN,1727793344
305,ukiah,39.1502,-123.2078,19.92,20,0,1.55,US,1727793345
306,lae,-6.7221,146.9847,24.86,82,44,1.13,PG,1727793346
307,kingston,17.997,-76.7936,27.53,78,75,2.06,JM,1727793347
308,selibaby,15.159,-12.1829,34.71,42,100,3.36,MR,1727793349
309,harstad,68.799,16.5293,4.66,68,100,8.48,NO,1727793350
310,tinajo,29.0788,-13.7081,26.49,57,20,8.75,ES,1727793351
311,sparta,43.9441,-90.8129,13.62,59,0,0.0,US,1727793352
312,ghanzi,-21.5667,21.7833,26.14,4,0,4.69,BW,1727793355
313,jepelacio,-6.1167,-76.95,27.79,47,23,1.31,PE,1727793356
314,idri,27.5,13.2667,31.93,23,0,3.11,LY,1727793357
315,afaahiti,-17.75,-149.2833,22.93,80,92,2.75,PF,1727793358
316,nakatunguru,-2.1167,33.0667,26.02,68,39,4.77,TZ,1727793360
317,george town,5.4112,100.3354,28.96,86,20,1.54,MY,1727792880
318,norton shores,43.1689,-86.2639,18.01,71,100,7.2,US,1727793362
319,gebeit,21.0667,36.3167,32.72,33,57,8.33,SD,1727793364
320,tongchuanshi,35.0806,109.0897,11.69,42,0,1.09,CN,1727793365
321,bandarbeyla,9.4942,50.8122,25.17,88,6,8.02,SO,1727793366
322,bel ombre,-4.6167,55.4167,27.91,74,40,5.14,SC,1727793367
323,ilebo,-4.3167,20.5833,32.51,43,68,2.69,CD,1727793369
324,kuraymah,18.55,31.85,40.4,10,0,5.37,SD,1727793370
325,gaya,24.7833,85.0,27.74,77,36,2.19,IN,1727793371
326,san pedro pochutla,15.7333,-96.4667,24.84,95,95,1.42,MX,1727793373
327,micheweni,-4.9667,39.8333,25.86,78,77,4.06,TZ,1727793374
328,vallo della lucania,40.2297,15.2658,20.69,53,3,2.21,IT,1727793375
329,alesund,62.4723,6.1549,15.51,55,20,1.03,NO,1727793377
330,inirida,3.8653,-67.9239,33.42,50,98,0.41,CO,1727793378
331,gamba,-2.65,10.0,24.74,81,100,4.56,GA,1727793379
332,marka,1.7159,44.7717,25.89,79,39,4.65,SO,1727793380
333,lorengau,-2.0226,147.2712,27.94,81,100,4.56,PG,1727793381
334,san patricio,28.017,-97.5169,27.92,55,0,3.05,US,1727793383
335,byron bay,-28.65,153.6167,13.73,75,24,4.37,AU,1727793384
336,amga,60.8953,131.9608,0.88,99,100,0.86,RU,1727793385
337,fortuna,40.5982,-124.1573,13.51,71,0,4.63,US,1727793386
338,padangsidempuan,1.3667,99.2667,22.69,98,100,0.37,ID,1727793388
339,nova sintra,14.8667,-24.7167,24.45,80,11,4.01,CV,1727793389
340,zliten,32.4674,14.5687,25.08,52,0,4.02,LY,1727793391
341,morant bay,17.8815,-76.4093,27.79,71,100,3.19,JM,1727793110
342,reinosa,42.9996,-4.138,18.76,72,67,3.06,ES,1727793394
343,buala,-8.145,159.5921,26.76,83,63,2.26,SB,1727793395
344,buka,40.8108,69.1986,20.97,26,99,2.33,UZ,1727793396
345,prado,-17.3411,-39.2208,26.13,67,26,4.74,BR,1727793398
346,mo i rana,66.3128,14.1428,7.4,78,75,1.54,NO,1727793399
347,mariental,-24.6333,17.9667,24.51,5,0,4.25,NA,1727793400
348,seka,17.9285,103.9552,24.47,94,86,2.75,TH,1727793401
349,terenos,-20.4422,-54.8603,34.84,36,35,5.66,BR,1727793403
350,katsuren-haebaru,26.3369,127.8719,29.43,91,20,3.6,JP,1727793231
351,vernon,50.2581,-119.2691,9.69,87,100,4.02,CA,1727793405
352,tual,-5.6667,132.75,27.32,72,95,7.34,ID,1727793406
353,aktau,43.65,51.2,22.32,45,0,1.77,KZ,1727793408
354,rahimatpur,17.6,74.2,26.82,74,98,0.57,IN,1727793409
355,bethanie,-26.4833,17.15,23.96,7,0,5.97,NA,1727793410
356,coquimbo,-29.9533,-71.3436,17.85,59,0,3.6,CL,1727793411
357,phan rang-thap cham,11.5667,108.9833,25.83,92,100,1.95,VN,1727793322
358,margate,51.3813,1.3862,14.37,83,100,8.23,GB,1727793414
359,okulovka,58.4008,33.2908,9.01,63,100,4.21,RU,1727793415
360,karangampel,-6.4622,108.4519,28.51,72,94,1.46,ID,1727793416
361,sorong,-0.8833,131.25,25.58,90,100,1.82,ID,1727793417
362,sungjibaegam,41.2428,128.7989,-0.81,93,100,3.59,KP,1727793418
363,hobyo,5.3505,48.5268,25.23,84,48,6.56,SO,1727793420
364,hotan,37.0997,79.9269,16.63,26,41,2.5,CN,1727793421
365,mahriz,31.5917,54.4318,28.28,18,6,2.58,IR,1727793422
366,tsiombe,-25.3,45.4833,26.25,63,2,5.01,MG,1727793424
367,kralupy nad vltavou,50.2411,14.3115,17.02,77,40,1.54,CZ,1727793425
368,coyuca de catalan,18.3333,-100.65,23.91,94,98,0.29,MX,1727793426
369,pul-e 'alam,33.9953,69.0227,21.29,15,3,2.42,AF,1727793427
370,mount isa,-20.7333,139.5,24.87,23,1,6.17,AU,1727793429
371,campbellsville,37.3434,-85.3419,20.58,95,75,1.34,US,1727793430
372,ruidoso,33.3317,-105.673,15.31,43,0,2.06,US,1727793255
373,cabo san lucas,22.8909,-109.9124,25.34,78,7,2.06,MX,1727793432
374,richards bay,-28.783,32.0377,17.77,55,0,5.63,ZA,1727793434
375,nikolayevsk-on-amure,53.1406,140.73,1.01,88,2,1.45,RU,1727793435
376,puerto deseado,-47.7503,-65.8938,8.94,35,100,7.94,AR,1727793436
377,tamanrasset,22.785,5.5228,30.95,18,0,1.54,DZ,1727793437
378,shenjiamen,29.9576,122.298,22.73,68,100,13.08,CN,1727793438
379,valandovo,41.3169,22.5611,20.66,24,3,6.06,MK,1727793440
380,lhokseumawe,5.1801,97.1507,27.06,83,99,1.55,ID,1727793441
381,diffa,13.3154,12.6113,37.75,19,10,7.92,NE,1727793442
382,la'ie,21.6477,-157.9253,25.25,81,4,2.68,US,1727793443
383,la ronge,55.1001,-105.2842,5.14,70,75,3.09,CA,1727793445
384,tromso,69.6496,18.957,5.01,60,40,9.26,NO,1727793446
385,charlestown,-32.95,151.6667,17.07,88,36,0.45,AU,1727793447
386,khovd,48.0056,91.6419,8.04,32,5,0.43,MN,1727793448
387,tocoa,15.6833,-86.0,28.79,62,99,0.23,HN,1727793450
388,luancheng,37.8792,114.6517,12.09,39,27,1.54,CN,1727793451
389,jiayuguan,39.8167,98.3,10.73,13,0,0.56,CN,1727793453
390,mata-utu,-13.2816,-176.1745,27.18,78,5,5.72,WF,1727793258
391,neftcala,39.3742,49.2472,21.5,66,1,5.02,AZ,1727793456
392,kiffa,16.6166,-11.4045,34.86,42,100,6.6,MR,1727793291
393,havre,49.5833,0.3333,17.41,67,75,6.69,FR,1727793458
394,grudki,53.0949,23.6685,9.47,67,100,1.88,PL,1727793459
395,mission,26.2159,-98.3253,26.65,78,0,1.54,US,1727793461
396,bogale,16.2833,95.4,24.0,97,100,3.46,MM,1727793462
397,uturoa,-16.7333,-151.4333,26.19,77,80,3.2,PF,1727793463
398,broome,42.2506,-75.833,18.59,72,75,4.12,US,1727793464
399,masterton,-40.9597,175.6575,13.94,92,95,1.51,NZ,1727793240
400,brookings,44.3114,-96.7984,10.59,68,45,1.79,US,1727793467
401,ca mau,9.1769,105.15,26.01,90,100,1.84,VN,1727793468
402,pacifica,37.6138,-122.4869,22.34,63,0,0.0,US,1727793469
403,safaga,26.7292,33.9365,29.73,55,0,5.52,EG,1727793470
404,juticalpa,14.65,-86.2,29.08,81,90,0.73,HN,1727793472
405,akobo,7.4344,3.9497,28.26,75,89,1.3,NG,1727793473
406,fale old settlement,-9.3852,-171.2468,26.96,75,100,3.08,TK,1727793474
407,rikaze,29.25,88.8833,15.54,48,13,0.96,CN,1727793475
408,alice springs,-23.7,133.8833,11.75,47,0,0.0,AU,1727793477
409,sao joao da barra,-21.6403,-41.0511,30.05,68,0,9.41,BR,1727793480
410,bandundu,-3.3167,17.3667,31.82,49,93,2.07,CD,1727793481
411,kavieng,-2.5744,150.7967,28.48,77,98,7.75,PG,1727793482
412,mahina,-17.5065,-149.489,23.87,78,99,1.03,PF,1727793484
413,hudson,40.7168,-74.0663,19.52,76,40,6.69,US,1727793485
414,acarau,-2.8856,-40.12,31.45,53,29,8.04,BR,1727793486
415,parambu,-6.2111,-40.6944,33.93,24,88,3.63,BR,1727793487
416,turuntayevo,52.2,107.6167,6.05,93,100,1.74,RU,1727793489
417,mantua,45.1667,10.7833,19.58,85,100,1.76,IT,1727793490
418,collie,-33.3667,116.15,12.41,85,34,3.75,AU,1727793491
419,winnemucca,40.973,-117.7357,0.03,55,0,3.6,US,1727793493
420,batangafo,7.3008,18.2833,29.41,74,24,1.42,CF,1727793494
421,tlahualilo de zaragoza,26.1167,-103.45,23.72,42,0,0.54,MX,1727793495
422,lander,42.833,-108.7307,2.22,47,0,0.0,US,1727793496
423,manhush,47.0558,37.3107,20.67,41,20,4.7,UA,1727793499
424,calca,-13.3333,-71.95,17.64,47,29,2.11,PE,1727793501
425,mejit,10.2753,170.8646,28.64,79,99,7.84,MH,1727793502
426,tanjung selor,2.8372,117.3642,24.48,95,82,0.59,ID,1727793503
427,watampone,-4.5386,120.3279,25.67,84,96,2.62,ID,1727793504
428,osogbo,7.7667,4.5667,27.99,75,74,1.39,NG,1727793505
429,vila velha,-20.3297,-40.2925,28.97,68,40,5.66,BR,1727793507
430,savanna-la-mar,18.219,-78.1332,31.07,61,30,0.47,JM,1727793508
431,aleksandrov gay,50.147,48.5704,19.4,23,1,4.62,RU,1727793510
432,pemangkat,1.1667,108.9667,26.46,81,100,1.82,ID,1727793512
433,awjilah,29.1081,21.2869,28.47,30,0,6.21,LY,1727793513
434,paradip garh,20.3167,86.6167,28.81,84,99,3.65,IN,1727793514
435,melekeok village,7.4957,134.6367,26.31,89,75,0.0,PW,1727793515
436,zafferana etnea,37.6822,15.108,23.99,63,9,0.45,IT,1727793518
437,lerwick,60.1545,-1.1494,13.0,76,3,2.61,GB,1727793519
438,pechora,65.1472,57.2244,4.7,65,62,6.57,RU,1727793520
439,sidi ifni,29.3797,-10.173,32.86,70,12,1.54,MA,1727793521
440,qarqaraly,49.4058,75.4742,12.43,29,0,2.75,KZ,1727793523
441,san buenaventura,27.0833,-101.5333,25.82,43,0,1.46,MX,1727793524
442,inari,68.906,27.0288,7.76,60,27,7.81,FI,1727793525
443,arkhangel'sk,64.5401,40.5433,9.06,53,0,3.0,RU,1727793526
444,castelli,-25.9468,-60.6195,39.45,23,1,4.08,AR,1727793528
445,sechura,-5.5569,-80.8222,21.6,68,100,5.5,PE,1727793529
446,cozumel,20.5083,-86.9458,28.04,94,75,3.6,MX,1727793530
447,phuthaditjhaba,-28.5242,28.8158,15.5,16,0,3.54,ZA,1727793531
448,labasa,-16.4167,179.3833,23.75,92,49,2.35,FJ,1727793533
449,altamont,42.2068,-121.7372,4.38,64,0,0.0,US,1727793534
450,bernal,-5.45,-80.75,23.32,60,100,5.34,PE,1727793535
451,kapa'a,22.0752,-159.319,23.39,89,22,4.33,US,1727793536
452,neryungri,56.6709,124.6491,-1.26,96,96,1.55,RU,1727793304
453,patterson,37.4716,-121.1297,20.51,24,0,1.21,US,1727793539
454,ain sukhna,29.6002,32.3167,29.77,39,0,4.71,EG,1727793540
455,kondopoga,62.2057,34.2614,8.82,66,15,1.56,RU,1727793541
456,hwange,-18.3693,26.5019,36.84,10,74,1.56,ZW,1727793543
457,katsuura,35.1333,140.3,24.7,87,89,6.54,JP,1727793544
458,shelui,-4.3667,34.2,30.67,32,86,0.9,TZ,1727793545
459,humaita,-7.5061,-63.0208,36.19,37,87,1.36,BR,1727793546
460,azadshahr,34.7909,48.5707,25.27,19,40,3.09,IR,1727793548
461,timmins,48.4669,-81.3331,10.9,93,100,4.12,CA,1727793549
462,sao paulo de olivenca,-3.3783,-68.8725,33.75,48,81,0.64,BR,1727793550
463,faya-largeau,17.9257,19.1043,38.53,14,33,6.87,TD,1727793551
464,tadine,-21.55,167.8833,21.65,83,0,6.3,NC,1727793553
465,jaguaribe,-5.8906,-38.6219,35.39,27,50,3.28,BR,1727793554
466,sosnovka,56.255,51.2842,10.14,52,8,2.48,RU,1727793555
467,ceeldheer,3.8488,47.1806,25.73,78,89,5.29,SO,1727793556
468,ocotal,13.6321,-86.4752,24.26,85,97,0.55,NI,1727793558
469,ad dabbah,18.05,30.95,40.76,11,24,6.66,SD,1727793559
470,kiama,-34.6833,150.8667,17.22,85,90,3.84,AU,1727793560
471,kattivakkam,13.2167,80.3167,30.08,86,3,5.75,IN,1727793561
472,bengkulu,-3.8004,102.2655,25.28,88,50,1.41,ID,1727793563
473,pesqueira,-8.3578,-36.6964,31.02,27,75,4.62,BR,1727793532
474,bamboo flat,11.7,92.7167,27.9,82,100,3.37,IN,1727793565
475,vila franca do campo,37.7167,-25.4333,25.23,83,100,6.03,PT,1727793566
476,suva,-18.1416,178.4415,23.71,100,75,1.03,FJ,1727793567
477,okeho,8.0333,3.35,27.17,74,99,1.33,NG,1727793569
478,mujiayingzi,42.1167,118.7833,5.08,48,6,3.87,CN,1727793550
479,aracataca,10.5918,-74.1898,31.34,56,6,2.83,CO,1727793571
480,florence,43.7667,11.25,20.05,90,75,1.54,IT,1727793330
481,baiti,13.745,-14.7482,32.62,56,37,1.18,SN,1727793574
482,abilene,32.4487,-99.7331,23.85,68,0,0.0,US,1727793575
483,prestea,5.4327,-2.1428,27.51,78,100,2.88,GH,1727793576
484,buckeye,33.3703,-112.5838,32.14,32,6,1.39,US,1727793577
485,sisimiut,66.9395,-53.6735,5.1,76,58,1.16,GL,1727793579
486,constitucion,-35.3333,-72.4167,13.63,72,7,3.97,CL,1727793580
487,dhanwar,24.4167,85.9833,26.84,77,13,2.35,IN,1727793581
488,tommot,58.9564,126.2925,3.6,97,100,4.05,RU,1727793582
489,ulety,51.3572,112.4849,3.02,75,9,4.35,RU,1727793584
490,kalymnos,36.95,26.9833,22.74,46,20,8.75,GR,1727793585
491,uglegorsk,49.0833,142.0333,8.65,92,100,2.74,RU,1727793586
492,buckie,57.6757,-2.9624,13.84,85,15,6.98,GB,1727793587
493,luanda,-8.8368,13.2343,28.0,65,75,5.66,AO,1727793349
494,boa vista,2.8197,-60.6733,29.99,62,40,1.54,BR,1727793590
495,saint-philippe,-21.3585,55.7679,24.77,78,39,5.31,RE,1727793591
496,forked river,39.8398,-74.1901,19.99,84,100,3.6,US,1727793595
497,nakamura,32.9833,132.9333,20.26,73,98,2.0,JP,1727793596
498,halden,59.1226,11.3871,13.24,78,99,3.34,NO,1727793597
499,new amsterdam,6.25,-57.5167,33.67,51,28,2.57,GY,1727793598
500,dillon,34.4166,-79.3712,26.01,79,100,2.19,US,1727793600
501,cidreira,-30.1811,-50.2056,22.43,79,100,4.91,BR,1727793601
502,evergreen,39.6333,-105.3172,11.98,30,44,0.92,US,1727793602
503,tralee,52.2704,-9.7026,15.14,72,75,1.54,IE,1727793604
504,selfoss,63.9331,-20.9971,7.8,93,100,4.41,IS,1727793605
505,champerico,14.3,-91.9167,24.3,92,100,3.16,GT,1727793606
506,jaguarari,-10.2639,-40.1958,28.07,39,100,5.93,BR,1727793607
507,panguipulli,-39.6333,-72.3333,8.06,47,56,1.78,CL,1727793609
508,fort-shevchenko,44.5086,50.263,18.54,46,0,3.94,KZ,1727793610
509,taco pozo,-25.6167,-63.2833,34.0,29,11,5.82,AR,1727793611
510,bernardino de campos,-23.0131,-49.4742,35.32,19,0,4.56,BR,1727793612
511,luderitz,-26.6481,15.1594,19.46,47,0,11.43,NA,1727793614
512,sernancelhe,40.921,-7.5123,25.73,67,84,4.32,PT,1727793615
513,dingzhou,38.5131,114.9956,12.06,34,78,2.28,CN,1727793616
514,kirensk,57.7853,108.1119,5.95,94,100,6.76,RU,1727793617
515,zeya,53.75,127.2667,3.48,64,97,0.75,RU,1727793618
516,yichun,47.7,128.9,1.45,67,9,1.1,CN,1727793620
517,dawson creek,55.7666,-120.2362,7.32,76,100,6.35,CA,1727793621
518,parczew,51.6402,22.9006,10.34,67,100,0.62,PL,1727793622
519,naze,28.3667,129.4833,26.51,83,99,4.51,JP,1727793572
520,peace river,56.2501,-117.286,4.81,100,100,0.48,CA,1727793625
521,canutama,-6.5339,-64.3831,37.0,37,96,0.77,BR,1727793626
522,suez,29.9737,32.5263,29.77,36,0,6.4,EG,1727793627
523,howrah,22.5892,88.3103,31.0,79,75,1.54,IN,1727793534
524,battle ground,45.7809,-122.5334,12.95,61,73,0.45,US,1727793630
525,bodaybo,57.8506,114.1933,4.02,91,100,2.64,RU,1727793631
526,bopolu,7.0667,-10.4875,26.77,86,100,1.58,LR,1727793632
527,cabedelo,-6.9811,-34.8339,29.37,61,87,6.28,BR,1727793633
528,utrik,11.2278,169.8474,28.22,80,100,7.44,MH,1727793634
529,markha,62.1053,129.7269,-0.02,93,100,2.0,RU,1727793636
530,zyryanovsk,49.7386,84.2719,11.86,40,5,0.39,KZ,1727793637
531,carolina beach,34.0352,-77.8936,27.81,72,66,3.52,US,1727793638
532,bonthe,7.5264,-12.505,27.01,79,99,3.69,SL,1727793639
533,itaituba,-4.2761,-55.9836,24.09,100,75,2.57,BR,1727793641
534,taoudenni,22.6783,-3.9836,43.24,11,39,4.83,ML,1727793642
535,mukalla,14.5425,49.1242,27.86,79,1,2.77,YE,1727793643
536,timbiqui,2.7717,-77.6654,26.67,80,91,1.35,CO,1727793644
537,prieska,-29.6641,22.7474,18.73,10,0,3.9,ZA,1727793646
538,teluknaga,-6.0989,106.6381,30.1,78,20,2.57,ID,1727793649
539,otaki,-40.7583,175.15,14.53,78,100,0.89,NZ,1727793651
540,paraiba do sul,-22.1619,-43.2928,29.67,32,1,2.84,BR,1727793652
541,ugbokpo,7.6565,7.8664,30.42,68,94,0.8,NG,1727793653
542,birao,10.2849,22.7882,24.54,86,100,2.96,CF,1727793654
543,inhambane,-23.865,35.3833,22.99,60,75,7.72,MZ,1727793657
544,inderbor,48.55,51.7833,21.05,21,36,4.75,KZ,1727793659
545,port shepstone,-30.7414,30.455,18.1,58,0,10.67,ZA,1727793660
546,pimentel,-6.8367,-79.9342,19.16,77,75,4.12,PE,1727793661
547,saint-pierre,-21.3393,55.4781,23.82,64,0,0.51,RE,1727793663
548,brak,27.5496,14.2714,31.66,18,0,4.23,LY,1727793665
549,vadso,70.0744,29.7487,8.49,61,75,9.77,NO,1727793666
550,santona,43.4439,-3.4576,24.56,83,92,3.87,ES,1727793667
551,floro,61.5996,5.0328,16.04,55,0,4.12,NO,1727793668
552,partenit,44.578,34.3446,17.91,76,90,3.8,UA,1727793670
553,martapura,-3.4167,114.85,26.05,94,40,1.54,ID,1727793671
554,pacific grove,36.6177,-121.9166,22.43,34,0,0.92,US,1727793672
555,san julian,21.0167,-102.1667,16.22,62,40,2.59,MX,1727793673
556,smithers,54.7804,-127.1743,4.18,93,75,1.03,CA,1727793675
557,kizhinga,51.8462,109.9097,2.88,84,15,4.22,RU,1727793676
558,laminusa,5.5549,120.9136,28.66,75,90,3.46,PH,1727793677
559,paita,-5.0892,-81.1144,20.06,76,100,5.59,PE,1727793678
560,illizi,26.4833,8.4667,34.89,15,0,4.29,DZ,1727793680
561,ermoupolis,37.4423,24.9425,24.5,44,0,3.6,GR,1727793681
562,kegen,43.0197,79.2203,9.04,59,0,1.32,KZ,1727793682
563,yung shue wan,22.2333,114.1167,28.71,66,100,0.45,HK,1727793683
564,pisco,-13.7,-76.2167,18.34,88,75,3.6,PE,1727793685
